{"type":"FeatureCollection","features":[
    {
        "type":"Feature",
        "properties":{
            "FID":1,
            "Name":"5 Generation Bakers—Green Grocer",
            "X":-80.068176742,"Y":40.465622403,"Location__":" ",
            "Address":"1100 Chartiers Avenue",
            "City":"McKees Rocks",
            "State":"PA",
            "Zip":15136,
            "Day_Time":"Tuesday 12:00 PM—1:00 PM",
            "Season":"June—November"},
            "geometry": {"type":"Point","coordinates":[-80.068176742,40.465622403]}},
            {"type":"Feature",
                "properties":{
                    "FID":2,
                    "Name":"A Child’s World Day Care Center—Green Grocer",
                    "X":-79.881319582,
                    "Y":40.412363795,
                    "Location__":" ",
                    "Address":"300 Rankin Blvd.",
                    "City":"Rankin",
                    "State":"PA",
                    "Zip":15104,
                    "Day_Time":"Thursday 4:30 PM—5:30 PM",
                    "Season":"June—November"},
                    "geometry":{"type":"Point","coordinates":[-79.88131958199999,40.412363795000005]}},{"type":"Feature",
                        "properties":{
                            "FID":3,
                            "Name":"Alma Illery Medical Center—Green Grocer",
                            "X":-79.896213628,
                            "Y":40.454591626,
                            "Location__":" ",
                            "Address":"7227 Hamilton Avenue",
                            "City":"Pittsburgh",
                            "State":"PA",
                            "Zip":15208,
                            "Day_Time":"Friday 11:30 AM—12:30 PM",
                            "Season":"June—November"},
                            "geometry":{"type":"Point",
                                "coordinates":[-79.89621362799998,40.454591625999996]}},{"type":"Feature","properties":{"FID":4,"Name":"Aspinwall Flea Market","X":-79.904517479,"Y":40.489754816,"Location__":"Municipal parking lot","Address":"250 Freeport Road","City":"Pittsburgh","State":"PA","Zip":15215,"Day_Time":"Sunday 7:00 AM—1:00 PM","Season":" "},"geometry":{"type":"Point","coordinates":[-79.904517479,40.489754815999994]}},{"type":"Feature","properties":{"FID":5,"Name":"Bachman’s Greenhouse and Nursery","X":-79.711237913,"Y":40.639293516,"Location__":" ","Address":"2903 Freeport Road","City":"Natrona Heights","State":"PA","Zip":15065,"Day_Time":"Daily 9:00 AM—7:00 PM","Season":"June—November"},"geometry":{"type":"Point","coordinates":[-79.711237913,40.639293516]}},{"type":"Feature","properties":{"FID":6,"Name":"Bachman’s Greenhouse and Nursery","X":-79.730284779,"Y":40.667205428,"Location__":"Route 908 & Ekastown Road","Address":"Ekastown Road","City":"Natrona Heights","State":"PA","Zip":15065,"Day_Time":"Daily 9:00 AM—7:00 PM","Season":"June—November"},"geometry":{"type":"Point","coordinates":[-79.730284779,40.66720542800001]}},{"type":"Feature","properties":{"FID":7,"Name":"Beccari’s Farm Market","X":-80.133125695,"Y":40.373956722,"Location__":" ","Address":"5095 Thoms Run Road","City":"Oakdale","State":"PA","Zip":15071,"Day_Time":"Tuesday—Friday 11:00 AM—5:30 PM","Season":"Saturday—Sunday 10:00 AM—4:00 PM"},"geometry":{"type":"Point","coordinates":[-80.13312569499999,40.373956722]}},{"type":"Feature","properties":{"FID":8,"Name":"Beechview Farmer’s Market—Citiparks","X":-80.024679606,"Y":40.410619493,"Location__":"Broadway Avenue & Beechview Avenue","Address":"Broadway Avenue","City":"Pittsburgh","State":"PA","Zip":15216,"Day_Time":"Thursday 4:00 pm—7:00 pm","Season":"June 22—September 14"},"geometry":{"type":"Point","coordinates":[-80.02467960600002,40.41061949299999]}},{"type":"Feature","properties":{"FID":9,"Name":"Bethel Park Farmer’s Market","X":-80.052162,"Y":40.342564,"Location__":"St. Thomas More church parking lot","Address":"Fort Couch Rd","City":"Bethel Park","State":"PA","Zip":15102,"Day_Time":"Tuesday 3:00 PM—7:00 PM","Season":" "},"geometry":{"type":"Point","coordinates":[-80.052162,40.342564]}},{"type":"Feature","properties":{"FID":10,"Name":"Bloomfield Farmer’s Market","X":-79.944361601,"Y":40.459080425,"Location__":" ","Address":"5050 Liberty Avenue","City":"Pittsburgh","State":"PA","Zip":15224,"Day_Time":"Saturday 9:00 AM—1:00 PM","Season":"June--November"},"geometry":{"type":"Point","coordinates":[-79.944361601,40.459080425]}},{"type":"Feature","properties":{"FID":11,"Name":"Braddock Farms (Grow Pittsburgh)","X":-79.868601077,"Y":40.403213648,"Location__":"6th Street and Braddock Avenue","Address":"600 Braddock Avenue","City":"Braddock","State":"PA","Zip":15104,"Day_Time":"Saturday 10:00 AM—2:00PM","Season":"June—October"},"geometry":{"type":"Point","coordinates":[-79.868601077,40.40321364799999]}},{"type":"Feature","properties":{"FID":12,"Name":"Bridge’s Farm","X":-79.764412359,"Y":40.517649478,"Location__":" ","Address":"7108 Leechburg Road","City":"New Kensington","State":"PA","Zip":15068,"Day_Time":"Monday—Saturday 9:00 AM—6:00 PM","Season":"Sunday 9:00 AM—5:00 PM"},"geometry":{"type":"Point","coordinates":[-79.76441235900002,40.517649478]}},{"type":"Feature","properties":{"FID":13,"Name":"Carrick Dairy District—Citiparks","X":-79.988647249,"Y":40.400038497,"Location__":" ","Address":"1529 Brownsville Road","City":"Pittsburgh","State":"PA","Zip":15210,"Day_Time":"Wednesday 3:00 PM—7:00 PM","Season":"June 21—November 22"},"geometry":{"type":"Point","coordinates":[-79.988647249,40.400038497000004]}},{"type":"Feature","properties":{"FID":14,"Name":"Coraopolis Farmer’s Market","X":-80.161049984,"Y":40.516299347,"Location__":"Presbyterian Church","Address":"1211 Fifth Avenue","City":"Coraopolis","State":"PA","Zip":15108,"Day_Time":"Monday 3:30 PM—6:30 PM","Season":" "},"geometry":{"type":"Point","coordinates":[-80.161049984,40.516299347]}},{"type":"Feature","properties":{"FID":15,"Name":"Dillner Family Farm","X":-79.9211482,"Y":40.669544679,"Location__":" ","Address":"4140 Sandy Hill Road","City":"Gibsonia","State":"PA","Zip":15044,"Day_Time":"Daily 9:00 AM—6:00 PM","Season":"June—November"},"geometry":{"type":"Point","coordinates":[-79.9211482,40.66954467899999]}},{"type":"Feature","properties":{"FID":16,"Name":"Duda’s Farm Market","X":-79.846019,"Y":40.220114,"Location__":" ","Address":"Route 51 Hayden Blvd","City":"Elizabeth","State":"PA","Zip":15037,"Day_Time":"Monday—Friday 10:00 AM—6:00 PM","Season":"Saturday—Sunday 10:00 AM—5:30 PM"},"geometry":{"type":"Point","coordinates":[-79.846019,40.22011399999999]}},{"type":"Feature","properties":{"FID":17,"Name":"Duda’s Farm Market","X":-79.932725923,"Y":40.360082144,"Location__":" ","Address":"1029 Lebanon Road","City":"West Mifflin","State":"PA","Zip":15122,"Day_Time":"Monday—Friday 10:00 AM—6:00 PM","Season":"Saturday—Sunday 10:00 AM—5:30 PM"},"geometry":{"type":"Point","coordinates":[-79.932725923,40.360082143999996]}},{"type":"Feature","properties":{"FID":18,"Name":"East Liberty Farmer’s Market","X":-79.92639,"Y":40.464192,"Location__":"next to McDonald’s","Address":"Penn Circle West","City":"Pittsburgh","State":"PA","Zip":15206,"Day_Time":"Monday 3:00 PM—7:00 PM","Season":"June--November"},"geometry":{"type":"Point","coordinates":[-79.92639,40.464192]}},{"type":"Feature","properties":{"FID":19,"Name":"Eichner’s Farm Market","X":-80.060138235,"Y":40.607837357,"Location__":" ","Address":"285 Richard Road","City":"Wexford","State":"PA","Zip":15090,"Day_Time":"Monday—Friday 9:00 AM—6:00 PM","Season":"Saturday—Sunday 9:00 AM—5:00 PM"},"geometry":{"type":"Point","coordinates":[-80.06013823500001,40.607837357]}},{"type":"Feature","properties":{"FID":20,"Name":"Elizabeth Farmer’s Market","X":-79.888071,"Y":40.272932,"Location__":" ","Address":"Water Street","City":"Elizabeth","State":"PA","Zip":15037,"Day_Time":"2nd Saturday of the month","Season":"9:00 AM—1:00 PM"},"geometry":{"type":"Point","coordinates":[-79.888071,40.27293199999999]}},{"type":"Feature","properties":{"FID":21,"Name":"Etna Farmer’s Market","X":-79.944054746,"Y":40.499679935,"Location__":" ","Address":"437 Butler Street","City":"Pittsburgh","State":"PA","Zip":15223,"Day_Time":"Thursday 3:00 PM—6:30 PM","Season":"June—October"},"geometry":{"type":"Point","coordinates":[-79.944054746,40.49967993500001]}},{"type":"Feature","properties":{"FID":22,"Name":"Family Dollar—Green Grocer","X":-79.88325569,"Y":40.29403623,"Location__":" ","Address":"533 Miller Avenue","City":"Clairton","State":"PA","Zip":15025,"Day_Time":"Wednesday 3:00 PM—4:00 PM","Season":"June—November"},"geometry":{"type":"Point","coordinates":[-79.88325569,40.294036229999996]}},{"type":"Feature","properties":{"FID":23,"Name":"Farmer’s Co-Op of East Liberty","X":-79.9214,"Y":40.464422,"Location__":" next to Home Depot","Address":"344 North Sheridan","City":"Pittsburgh","State":"PA","Zip":15206,"Day_Time":"Saturday 5:00 AM--12:00 PM","Season":"Year Round"},"geometry":{"type":"Point","coordinates":[-79.9214,40.464421999999985]}},{"type":"Feature","properties":{"FID":24,"Name":"Farmer’s Market at the University of Pittsburgh","X":-79.964304638,"Y":40.437861273,"Location__":" ","Address":"3259 5th Avenue","City":"Pittsburgh","State":"PA","Zip":15213,"Day_Time":"Thursday 10:30 AM—2:00 PM","Season":"June, August—October"},"geometry":{"type":"Point","coordinates":[-79.964304638,40.437861273]}},{"type":"Feature","properties":{"FID":25,"Name":"Forest Hills Farmer’s Market","X":-79.861137258,"Y":40.424975807,"Location__":"Forest Hills Presbyterian Church","Address":"Ardmore Blvd.","City":"Pittsburgh","State":"PA","Zip":15221,"Day_Time":"Friday 4:00 PM—7:00 PM","Season":"June—October"},"geometry":{"type":"Point","coordinates":[-79.86113725800001,40.424975807]}},{"type":"Feature","properties":{"FID":26,"Name":"Fox Chapel Farmer’s Market","X":-79.89139054,"Y":40.520854213,"Location__":" ","Address":"650 Squaw Run Road","City":"Pittsburgh","State":"PA","Zip":15238,"Day_Time":"Wednesday 3:00 PM—6:00 PM","Season":"June—November"},"geometry":{"type":"Point","coordinates":[-79.89139053999999,40.52085421299999]}},{"type":"Feature","properties":{"FID":27,"Name":"GAP Park (Millvale)—Green Grocer","X":-79.974461993,"Y":40.480877706,"Location__":" ","Address":"518 Grant Avenue","City":"Pittsburgh","State":"PA","Zip":15209,"Day_Time":"Tuesday 4:30 PM—5:30 PM","Season":"June—November"},"geometry":{"type":"Point","coordinates":[-79.974461993,40.48087770600001]}},{"type":"Feature","properties":{"FID":28,"Name":"Greater Pittsburgh Community Food Bank—Green Grocer","X":-79.842715052,"Y":40.375781936,"Location__":" ","Address":"1 North Linden Street","City":"Duquesne","State":"PA","Zip":15110,"Day_Time":"Thursday 2:00 PM—3:00 PM","Season":"June—November"},"geometry":{"type":"Point","coordinates":[-79.84271505200002,40.375781935999996]}},{"type":"Feature","properties":{"FID":29,"Name":"Green Tree Farmer’s Market","X":-80.047043213,"Y":40.418763025,"Location__":"Green Tree Park","Address":"10 W. Manila Avenue","City":"Pittsburgh","State":"PA","Zip":15220,"Day_Time":"Thursdays 4:00 PM—7:30 PM","Season":" "},"geometry":{"type":"Point","coordinates":[-80.047043213,40.418763025000004]}},{"type":"Feature","properties":{"FID":30,"Name":"Harvest Farm Market and Bakery","X":-79.934940303,"Y":40.663906552,"Location__":" ","Address":"6003 Cunningham Road","City":"Gibsonia","State":"PA","Zip":15044,"Day_Time":"Daily 10:00 AM—5:00 PM","Season":"June—November"},"geometry":{"type":"Point","coordinates":[-79.934940303,40.663906552]}},{"type":"Feature","properties":{"FID":31,"Name":"Janoski’s Farm","X":-80.331793674,"Y":40.491757192,"Location__":" ","Address":"1714 Route 30","City":"Clinton","State":"PA","Zip":15026,"Day_Time":"Daily 8:00 AM—5:00 PM","Season":"Year Round"},"geometry":{"type":"Point","coordinates":[-80.331793674,40.491757192]}},{"type":"Feature","properties":{"FID":32,"Name":"JL Kennedy","X":-79.921281424,"Y":40.464351331,"Location__":" ","Address":"344 N. Sheridan Avenue","City":"Pittsburgh","State":"PA","Zip":15206,"Day_Time":"Saturday 5:00 AM—12:00 PM","Season":"June—November"},"geometry":{"type":"Point","coordinates":[-79.921281424,40.464351331]}},{"type":"Feature","properties":{"FID":33,"Name":"Jodinko’s Farm Market","X":-80.416222611,"Y":40.54117285,"Location__":" ","Address":"2488 Route 18","City":"Clinton","State":"PA","Zip":15026,"Day_Time":"Daily 9:00 AM-6:00 Pm","Season":"June-November"},"geometry":{"type":"Point","coordinates":[-80.416222611,40.54117285]}},{"type":"Feature","properties":{"FID":34,"Name":"Lawrenceville Farmer’s Market","X":-79.96184,"Y":40.466165,"Location__":"Arsenal Park","Address":"39th Street","City":"Pittsburgh","State":"PA","Zip":15201,"Day_Time":"Saturday 1:00 PM—4:00 PM","Season":"June—October 28"},"geometry":{"type":"Point","coordinates":[-79.96184,40.466165000000004]}},{"type":"Feature","properties":{"FID":35,"Name":"Mallisee Farm","X":-79.771565,"Y":40.475225,"Location__":"Willow Village","Address":"Saltsburg Road","City":"Pittsburgh","State":"PA","Zip":15239,"Day_Time":"Daily 11:00 AM—5:00 PM","Season":"Mid July—September"},"geometry":{"type":"Point","coordinates":[-79.771565,40.475225]}},{"type":"Feature","properties":{"FID":36,"Name":"Market Square Farmer’s Market","X":-80.001494828,"Y":40.441020679,"Location__":"Market Square","Address":"222 Fifth Ave","City":"Pittsburgh","State":"PA","Zip":15222,"Day_Time":"Thursdays 10:00 PM—2:00 PM","Season":"June—October"},"geometry":{"type":"Point","coordinates":[-80.001494828,40.441020679]}},{"type":"Feature","properties":{"FID":37,"Name":"Mazur Auto Body","X":-80.019280874,"Y":40.53375335,"Location__":" ","Address":"3333 Babcock Blvd.","City":"Pittsburgh","State":"PA","Zip":15237,"Day_Time":"Monday—Friday 9:00 AM—5:00 PM","Season":"July—October"},"geometry":{"type":"Point","coordinates":[-80.019280874,40.53375335]}},{"type":"Feature","properties":{"FID":38,"Name":"Mellon Square Farmer’s Market—Citiparks","X":-79.99810947,"Y":40.440999463,"Location__":" ","Address":"529 Smithfield Street","City":"Pittsburgh","State":"PA","Zip":15222,"Day_Time":"Fridays 10:30 AM—1:30 PM","Season":"May 12—October 27"},"geometry":{"type":"Point","coordinates":[-79.99810947,40.44099946299998]}},{"type":"Feature","properties":{"FID":39,"Name":"Misera Farms","X":-79.802884,"Y":40.583462,"Location__":" ","Address":"Butler Logan Road","City":"Tarentum","State":"PA","Zip":15084,"Day_Time":"Saturday and Sunday 11:00 AM—4:00 PM","Season":"June—October"},"geometry":{"type":"Point","coordinates":[-79.802884,40.583462]}},{"type":"Feature","properties":{"FID":40,"Name":"Monroeville Lion’s Farmer’s Market","X":-79.771915412,"Y":40.418776006,"Location__":"Monroeville Community Park","Address":"2399 Tilbrook Road","City":"Monroeville","State":"PA","Zip":15146,"Day_Time":"Saturday 9:00 AM—12:00 PM","Season":" "},"geometry":{"type":"Point","coordinates":[-79.77191541199998,40.418776005999995]}},{"type":"Feature","properties":{"FID":41,"Name":"Moon Township Farmer’s Market","X":-80.208131412,"Y":40.504579272,"Location__":"Municipal Building","Address":"1000 Beaver Grade Road","City":"Moon Township","State":"PA","Zip":15108,"Day_Time":"Tuesday 3:30 PM—6:30 PM","Season":" "},"geometry":{"type":"Point","coordinates":[-80.208131412,40.504579271999994]}},{"type":"Feature","properties":{"FID":42,"Name":"Mt. Lebanon Lions Farmer’s Market","X":-80.048127992,"Y":40.373751593,"Location__":"United Lutheran Church parking lot","Address":"975 Washington Road","City":"Pittsburgh","State":"PA","Zip":15228,"Day_Time":"Wednesday 4:00 PM—7:00 PM","Season":" "},"geometry":{"type":"Point","coordinates":[-80.048127992,40.373751592999994]}},{"type":"Feature","properties":{"FID":43,"Name":"Mt. Lebanon Uptown Farmer’s Market","X":-80.045187261,"Y":40.379955815,"Location__":" ","Address":"710 Washington Road","City":"Pittsburgh","State":"PA","Zip":15228,"Day_Time":"Saturday 9:00 AM—12:00 PM","Season":"June—November"},"geometry":{"type":"Point","coordinates":[-80.045187261,40.379955814999995]}},{"type":"Feature","properties":{"FID":44,"Name":"Northside Farmer’s Market—Citiparks","X":-80.001372463,"Y":40.453499731,"Location__":"East Park","Address":"East Ohio Street","City":"Pittsburgh","State":"PA","Zip":15212,"Day_Time":"Fridays 3:00 PM—7:00 PM","Season":" "},"geometry":{"type":"Point","coordinates":[-80.00137246299998,40.453499731]}},{"type":"Feature","properties":{"FID":45,"Name":"Oakland Farmer’s Market","X":-79.956838,"Y":40.440485,"Location__":" ","Address":"Atwood Street","City":"Pittsburgh","State":"PA","Zip":15213,"Day_Time":"Friday 3:00 PM—6:00 PM","Season":"June—October"},"geometry":{"type":"Point","coordinates":[-79.95683800000002,40.440484999999995]}},{"type":"Feature","properties":{"FID":46,"Name":"Olde World Produce","X":-79.93855831,"Y":40.312232208,"Location__":"Ciccanti’s Ristorante parking lot","Address":"1206 Route 51","City":"Jefferson Hills","State":"PA","Zip":15025,"Day_Time":"Daily 9:30 AM—5:30 PM","Season":" "},"geometry":{"type":"Point","coordinates":[-79.93855830999999,40.31223220799998]}},{"type":"Feature","properties":{"FID":47,"Name":"Original Farmer’s Night Market","X":-80.117311,"Y":40.355634,"Location__":"off I-79","Address":"Route 50 East","City":"McDonald","State":"PA","Zip":15057,"Day_Time":"Mon/Wed/Fri. 5:30 PM—9:00 PM","Season":"June—November"},"geometry":{"type":"Point","coordinates":[-80.11731099999999,40.35563399999999]}},{"type":"Feature","properties":{"FID":48,"Name":"Penn Hills Garden Center","X":-79.82341696,"Y":40.464408308,"Location__":" ","Address":"200 Jefferson Road","City":"Pittsburgh","State":"PA","Zip":15235,"Day_Time":"Sunday 10:00 AM—2:00 PM","Season":"June—October"},"geometry":{"type":"Point","coordinates":[-79.82341695999999,40.464408308]}},{"type":"Feature","properties":{"FID":49,"Name":"Pennsylvania Market Building","X":-79.980913026,"Y":40.427753546,"Location__":" (Strip District)","Address":"108 18th Street","City":"Pittsburgh","State":"PA","Zip":15222,"Day_Time":"Saturday 9:00 AM—4:00 PM","Season":"Sunday 9:00 AM—2:00 PM"},"geometry":{"type":"Point","coordinates":[-79.980913026,40.42775354599999]}},{"type":"Feature","properties":{"FID":50,"Name":"Pleasant Hills Farmer’s Market","X":-79.946439505,"Y":40.335049477,"Location__":"Next to Chick Fil A","Address":"461 Clairton Road","City":"Pittsburgh","State":"PA","Zip":15236,"Day_Time":"Thursdays 3:00 PM—7:00 PM","Season":" "},"geometry":{"type":"Point","coordinates":[-79.94643950499999,40.335049477]}},{"type":"Feature","properties":{"FID":51,"Name":"Robinson Farmer’s Market","X":-80.135225254,"Y":40.452391858,"Location__":"Holy Trinity Catholic Church, upper parking lot","Address":"5718 Steubenville Pike","City":"McKees Rocks","State":"PA","Zip":15136,"Day_Time":"Monday 4:00 PM—7:00 PM","Season":"June 5 to October 2"},"geometry":{"type":"Point","coordinates":[-80.135225254,40.452391858]}},{"type":"Feature","properties":{"FID":52,"Name":"Ross Township Farmer’s Market","X":-80.03586335,"Y":40.533704981,"Location__":" ","Address":"920 Perry Highway","City":"Pittsburgh","State":"PA","Zip":15237,"Day_Time":"Wednesday 3:00 PM—7:00 PM","Season":"June--October"},"geometry":{"type":"Point","coordinates":[-80.03586335,40.533704981]}},{"type":"Feature","properties":{"FID":53,"Name":"Sewickley Farmer’s Market","X":-80.184692665,"Y":40.537597539,"Location__":"St. James parking lot","Address":"200 Walnut Street","City":"Sewickley","State":"PA","Zip":15143,"Day_Time":"Saturday 9:00 AM—1:00 PM","Season":"June--November"},"geometry":{"type":"Point","coordinates":[-80.18469266499999,40.537597539]}},{"type":"Feature","properties":{"FID":54,"Name":"St. Ursula Parish—Hampton Township","X":-79.96349959,"Y":40.560796445,"Location__":" ","Address":"3937 Kirk Avenue","City":"Allison Park","State":"PA","Zip":15101,"Day_Time":"Friday 1:00 PM—5:00 PM","Season":"June—October"},"geometry":{"type":"Point","coordinates":[-79.96349959,40.560796444999994]}}]}